,City,Cloudiness,Country,Date,Humidity,Lat,Lng,Max Temp,Wind Speed
0,port blair,90,IN,1586670507,70,11.67,92.75,302.1,2.14
1,ushuaia,40,AR,1586670284,64,-54.8,-68.3,277.15,4.1
2,vaini,40,TO,1586670508,74,-21.2,-175.2,299.15,2.6
3,portland,1,US,1586670387,57,45.52,-122.68,285.15,3.1
4,xinxiang,0,CN,1586670509,18,35.31,113.87,296.09,6.32
5,pangnirtung,100,CA,1586670509,89,66.15,-65.71,268.88,4.21
6,novyy urengoy,99,RU,1586670509,95,66.08,76.63,267.15,3.13
7,rayevskiy,100,RU,1586670510,58,54.07,54.95,281.82,5.28
8,mar del plata,100,AR,1586670331,93,-38.0,-57.56,287.59,1.5
9,hasaki,75,JP,1586670511,66,35.73,140.83,288.15,5.7
10,tautira,100,PF,1586670512,74,-17.73,-149.15,301.15,1.0
11,te anau,83,NZ,1586670512,83,-45.42,167.72,285.37,0.46
12,banepa,20,NP,1586670513,46,27.63,85.52,296.15,1.0
13,hithadhoo,9,MV,1586670513,68,-0.6,73.08,302.45,3.83
14,kawalu,46,ID,1586670513,50,-7.38,108.21,304.25,2.13
15,faya,64,SA,1586670514,82,18.39,42.45,292.15,3.6
16,new norfolk,75,AU,1586670514,59,-42.78,147.06,289.15,6.7
17,kananga,100,CD,1586670515,78,-5.9,22.42,295.92,1.42
18,albany,1,US,1586670312,59,42.6,-73.97,274.15,1.49
19,rikitea,92,PF,1586670515,80,-23.12,-134.97,299.01,4.09
20,hobart,75,AU,1586670346,59,-42.88,147.33,289.15,6.7
21,cape town,75,ZA,1586670223,93,-33.93,18.42,290.37,6.7
22,bakel,31,SN,1586670516,23,14.9,-12.46,300.14,5.36
23,bay roberts,40,CA,1586670517,95,47.6,-53.26,274.26,7.7
24,bonthe,24,SL,1586670517,85,7.53,-12.51,299.45,0.51
25,butaritari,99,KI,1586670518,77,3.07,172.79,301.5,5.78
26,yellowknife,5,CA,1586670225,55,62.46,-114.35,260.15,1.5
27,sturgeon falls,90,CA,1586670518,74,46.36,-79.93,273.71,3.1
28,lagoa,4,PT,1586670519,79,39.05,-27.98,289.07,3.55
29,bluff,47,NZ,1586670519,58,-46.6,168.33,293.15,0.89
30,punta arenas,75,CL,1586670520,93,-53.15,-70.92,278.15,4.6
31,castro,61,BR,1586670249,69,-24.79,-50.01,286.31,2.45
32,kapaa,90,US,1586670521,73,22.08,-159.32,297.15,2.1
33,souillac,40,MU,1586670522,65,-20.52,57.52,301.48,8.2
34,torbay,40,CA,1586670522,95,47.67,-52.73,274.26,7.7
35,dongsheng,0,CN,1586670522,18,39.82,109.98,284.05,2.82
36,jamestown,1,US,1586670523,59,42.1,-79.24,280.37,2.6
37,new port richey,75,US,1586670523,83,28.24,-82.72,298.15,4.6
38,buraydah,4,SA,1586670365,42,26.33,43.98,292.15,6.7
39,kahului,40,US,1586670420,65,20.89,-156.47,299.15,3.1
40,evensk,99,RU,1586670524,92,61.95,159.23,264.57,0.75
41,ormara,56,PK,1586670525,43,25.21,64.64,302.06,2.42
42,krasnoselkup,100,RU,1586670525,97,65.7,82.47,273.36,2.92
43,banda aceh,68,ID,1586670525,62,5.56,95.32,304.49,2.36
44,shingu,75,JP,1586670526,81,33.73,135.98,284.15,2.6
45,richards bay,0,ZA,1586670526,75,-28.78,32.04,295.86,5.73
46,fortuna,90,US,1586670527,93,40.6,-124.16,283.71,3.6
47,barrow,90,US,1586670527,86,71.29,-156.79,271.15,8.2
48,porosozero,11,RU,1586670527,85,62.72,32.73,272.94,2.78
49,bethel,1,US,1586670528,74,41.37,-73.41,278.15,0.38
50,olafsvik,51,IS,1586670528,89,64.89,-23.71,273.85,8.38
51,pangody,99,RU,1586670529,95,65.85,74.49,267.14,2.94
52,isla mujeres,40,MX,1586670529,78,21.23,-86.73,300.15,5.7
53,iqaluit,90,CA,1586670529,73,63.75,-68.51,268.15,5.7
54,chuy,16,UY,1586670530,83,-33.7,-53.46,288.27,1.79
55,sao joao da barra,100,BR,1586670530,93,-21.64,-41.05,294.08,4.65
56,hovd,95,MN,1586670531,26,48.01,91.64,282.74,2.68
57,ribeira grande,16,PT,1586670531,75,38.52,-28.7,288.92,2.28
58,wajima,90,JP,1586670532,58,37.4,136.9,284.15,5.7
59,cabra,78,ES,1586670533,87,37.47,-4.44,285.93,1.0
60,clyde river,20,CA,1586670533,91,70.47,-68.59,256.15,3.6
61,east london,96,ZA,1586670533,73,-33.02,27.91,295.15,2.1
62,kruisfontein,99,ZA,1586670534,41,-34.0,24.73,292.41,6.55
63,clearlake,90,US,1586670534,87,38.96,-122.63,284.82,2.6
64,mount isa,13,AU,1586670535,7,-20.73,139.5,306.15,4.1
65,ancud,0,CL,1586670535,100,-41.87,-73.82,276.15,1.5
66,qaanaaq,100,GL,1586670535,72,77.48,-69.36,262.16,2.66
67,nuuk,100,GL,1586670536,93,64.18,-51.72,275.15,8.2
68,honningsvag,100,NO,1586670536,90,70.98,25.97,272.2,5.16
69,padmanabhapuram,20,IN,1586670537,62,8.23,77.33,305.15,3.1
70,mantua,0,IT,1586670537,66,45.17,10.78,285.93,1.5
71,faanui,53,PF,1586670537,73,-16.48,-151.75,301.2,5.69
72,namibe,16,AO,1586670538,66,-15.2,12.15,297.54,1.77
73,ternate,25,ID,1586670538,74,0.8,127.4,302.11,3.22
74,port alfred,33,ZA,1586670539,64,-33.59,26.89,293.15,2.24
75,buala,86,SB,1586670539,73,-8.14,159.59,302.07,1.95
76,zhangye,90,CN,1586670540,11,38.93,100.45,290.54,3.25
77,kilindoni,99,TZ,1586670541,83,-7.91,39.67,300.51,6.95
78,okhotsk,77,RU,1586670541,94,59.38,143.3,271.89,4.07
79,baruun-urt,0,MN,1586670542,16,46.68,113.28,289.41,5.35
80,hermanus,70,ZA,1586670542,69,-34.42,19.23,292.59,5.36
81,bredasdorp,71,ZA,1586670542,68,-34.53,20.04,292.59,11.3
82,carutapera,99,BR,1586670543,86,-1.2,-46.02,299.41,2.14
83,narsaq,100,GL,1586670543,30,60.92,-46.05,279.15,27.8
84,nizhniy odes,100,RU,1586670544,92,63.64,54.86,270.53,1.34
85,tura,12,IN,1586670431,19,25.52,90.22,308.03,1.77
86,hobyo,45,SO,1586670544,63,5.35,48.53,303.17,4.91
87,sinop,5,TR,1586670545,47,41.77,34.87,279.79,1.48
88,camacha,75,PT,1586670546,87,33.08,-16.33,289.15,8.2
89,farmington,1,US,1586670542,33,36.73,-108.22,281.15,3.1
90,ostersund,100,SE,1586670546,78,63.18,14.64,275.15,5.1
91,bhola,0,BD,1586670547,33,22.68,90.65,307.23,3.12
92,champerico,35,GT,1586670547,74,14.3,-91.92,300.85,2.03
93,zhanaozen,0,KZ,1586670548,50,43.3,52.8,284.51,6.38
94,airai,99,TL,1586670548,69,-8.93,125.41,292.32,1.6
95,port elizabeth,20,ZA,1586670458,49,-33.92,25.57,294.15,7.7
96,sioux lookout,90,CA,1586670549,74,50.1,-91.92,271.15,4.1
97,tuktoyaktuk,75,CA,1586670550,71,69.45,-133.04,258.15,4.6
98,aykhal,11,RU,1586670550,47,66.0,111.5,274.15,5.0
99,atuona,26,PF,1586670550,70,-9.8,-139.03,301.08,3.43
100,saint-philippe,75,RE,1586670551,74,-21.36,55.77,300.93,7.2
101,cukai,40,MY,1586670551,70,4.25,103.42,306.15,3.6
102,kholtoson,94,RU,1586670552,24,50.3,103.31,285.29,2.26
103,port hedland,40,AU,1586670552,44,-20.32,118.57,307.15,8.2
104,basco,87,PH,1586670553,86,20.45,121.97,296.51,11.88
105,mataura,38,NZ,1586670553,58,-46.19,168.86,293.15,0.89
106,vila velha,75,BR,1586670365,88,-20.33,-40.29,296.48,4.1
107,tuatapere,44,NZ,1586670554,58,-46.13,167.68,293.15,0.89
108,college,75,US,1586670555,91,64.86,-147.8,279.15,0.38
109,vohibinany,63,MG,1586670556,67,-17.35,49.03,298.18,2.3
110,mount gambier,90,AU,1586670556,62,-37.83,140.77,287.15,5.1
111,ferrol,75,ES,1586670557,100,43.48,-8.24,285.93,1.0
112,cleveland,40,US,1586670557,49,41.5,-81.7,283.15,4.1
113,vardo,74,NO,1586670558,93,70.37,31.11,270.99,6.19
114,weligama,12,LK,1586670558,54,5.97,80.42,305.71,2.62
115,busselton,67,AU,1586670559,52,-33.65,115.33,298.15,6.26
116,pevek,4,RU,1586670559,91,69.7,170.31,260.91,6.36
117,tokur,29,RU,1586670560,39,53.13,132.9,281.43,0.92
118,muros,20,ES,1586670561,100,42.78,-9.06,285.93,2.67
119,wenling,37,CN,1586670561,48,28.37,121.36,292.59,6.87
120,derzhavinsk,64,KZ,1586670562,40,51.1,66.32,284.89,4.2
121,lenger,90,KZ,1586670562,93,42.18,69.88,288.15,3.0
122,longyearbyen,20,SJ,1586670562,63,78.22,15.64,252.15,1.5
123,chokurdakh,98,RU,1586670563,95,70.63,147.92,268.18,6.31
124,madang,98,PG,1586670563,68,-5.22,145.8,303.08,2.8
125,kavieng,95,PG,1586670564,67,-2.57,150.8,302.45,1.01
126,sept-iles,20,CA,1586670354,54,50.2,-66.38,272.04,3.1
127,grand gaube,40,MU,1586670564,65,-20.01,57.66,301.48,8.2
128,chernyshevskiy,19,RU,1586670565,72,63.01,112.47,275.07,4.22
129,choya,26,RU,1586670566,67,52.01,86.55,283.02,1.06
130,abu dhabi,100,AE,1586670303,27,24.47,54.37,304.26,6.2
131,valence,59,ES,1586670543,76,39.47,-0.38,287.04,4.6
132,buctzotz,0,MX,1586670567,82,21.2,-88.78,297.71,6.36
133,yerofey pavlovich,0,RU,1586670567,45,53.97,121.97,285.52,1.03
134,norman wells,75,CA,1586670568,49,65.28,-126.83,269.15,2.6
135,arraial do cabo,47,BR,1586670568,77,-22.97,-42.03,295.2,2.87
136,bail hongal,0,IN,1586670569,33,15.82,74.87,305.15,3.41
137,huarmey,12,PE,1586670569,75,-10.07,-78.15,296.62,3.38
138,nemuro,20,JP,1586670569,55,43.32,145.57,277.15,3.6
139,puerto ayora,58,EC,1586670570,89,-0.74,-90.35,299.26,0.45
140,shache,58,CN,1586670570,10,38.42,77.24,297.36,0.59
141,carnarvon,24,AU,1586670571,62,-24.87,113.63,303.15,8.2
142,dikson,95,RU,1586670571,96,73.51,80.55,265.05,3.2
143,vestmannaeyjar,100,IS,1586670572,81,63.44,-20.27,278.23,6.42
144,avarua,100,CK,1586670572,94,-21.21,-159.78,301.15,2.1
145,korla,60,CN,1586670573,12,41.76,86.15,295.46,3.48
146,toyooka,75,JP,1586670573,87,35.53,134.83,281.15,2.1
147,cabo san lucas,66,MX,1586670314,70,22.89,-109.91,292.04,2.68
148,srednekolymsk,50,RU,1586670574,96,67.45,153.68,272.91,4.19
149,quatre cocos,40,MU,1586670575,65,-20.21,57.76,301.48,8.2
150,tokmak,0,UA,1586670575,57,47.25,35.71,280.12,5.24
151,cozumel,40,MX,1586670575,78,20.51,-86.95,300.15,5.7
152,mocuba,23,MZ,1586670576,71,-16.84,36.99,297.32,0.65
153,isangel,27,VU,1586670576,65,-19.55,169.27,299.33,2.87
154,shetpe,0,KZ,1586670577,51,44.17,52.12,281.95,7.58
155,esperance,100,AU,1586670577,45,-33.87,121.9,301.15,8.2
156,neder vindinge,89,DK,1586670578,66,55.03,11.88,282.59,4.1
157,sao filipe,55,CV,1586670578,76,14.9,-24.5,296.56,3.77
158,konstantinovka,1,RU,1586670578,29,49.62,127.98,289.96,3.43
159,prainha,87,BR,1586670579,98,-1.8,-53.48,296.18,0.74
160,porto novo,40,BJ,1586670579,83,6.5,2.6,301.15,2.6
161,severo-kurilsk,74,RU,1586670580,93,50.68,156.12,273.16,3.27
162,bolobo,100,CD,1586670580,81,-2.17,16.23,296.87,3.42
163,gazli,100,UZ,1586670581,41,40.13,63.45,293.63,1.81
164,rio gallegos,84,AR,1586670582,70,-51.62,-69.22,281.15,4.6
165,ambon,40,ID,1586670582,94,-3.7,128.18,299.15,3.1
166,zhezkazgan,90,KZ,1586670583,50,47.8,67.71,284.15,3.0
167,alofi,76,NU,1586670583,78,-19.06,-169.92,299.15,4.1
168,sevsk,0,RU,1586670584,64,52.15,34.49,276.95,4.73
169,chabahar,20,IR,1586670584,69,25.29,60.64,301.15,4.1
170,tecpan,75,GT,1586670585,93,14.76,-90.99,292.15,0.56
171,nelson bay,9,AU,1586670585,42,-32.72,152.15,295.93,4.1
172,ugoofaaru,17,MV,1586670523,68,5.67,73.0,303.07,4.71
173,lamu,100,KE,1586670586,78,-2.27,40.9,301.29,3.12
174,geraldton,28,AU,1586670586,62,-28.77,114.6,302.15,6.7
175,ituporanga,48,BR,1586670587,97,-27.41,-49.6,288.71,0.45
176,tasiilaq,100,GL,1586670587,68,65.61,-37.64,269.15,6.7
177,carlsbad,90,US,1586670588,77,33.16,-117.35,289.26,2.6
178,husavik,90,IS,1586670588,68,66.04,-17.34,272.15,7.7
179,leningradskiy,93,RU,1586670589,90,69.38,178.42,264.2,2.23
180,hongjiang,13,CN,1586670589,44,27.11,110.0,292.29,2.73
181,guhagar,15,IN,1586670589,48,17.48,73.19,305.74,3.35
182,vostok,0,RU,1586670590,36,46.49,135.88,281.61,3.72
183,palasa,0,IN,1586670590,29,18.77,84.42,308.22,2.64
184,lebu,0,CL,1586670591,79,-37.62,-73.65,283.2,5.08
185,ponta delgada,20,PT,1586670591,82,37.73,-25.67,287.15,4.6
186,batemans bay,0,AU,1586670592,52,-35.72,150.18,293.71,1.79
187,sainte-marie,40,RE,1586670592,78,-20.9,55.55,300.93,5.7
188,kaitangata,91,NZ,1586670593,75,-46.28,169.85,288.71,0.45
189,lakselv,100,NO,1586670593,68,70.05,24.97,270.93,12.9
190,qalyub,0,EG,1586670593,82,30.18,31.21,288.15,2.24
191,ayr,75,GB,1586670594,87,55.46,-4.63,281.48,1.0
192,salalah,40,OM,1586670594,70,17.02,54.09,302.15,6.2
193,nikolskoye,32,RU,1586670595,80,59.7,30.79,277.04,2.0
194,takoradi,49,GH,1586670595,86,4.88,-1.76,299.55,1.41
195,osypenko,0,UA,1586670595,53,46.91,36.83,277.59,5.36
196,san cristobal,68,VE,1586670596,61,7.77,-72.22,293.02,1.08
197,dong hoi,99,VN,1586670515,90,17.48,106.6,294.54,7.66
198,lavrentiya,99,RU,1586670597,98,65.58,-171.0,273.06,3.91
199,maniitsoq,100,GL,1586670597,89,65.42,-52.9,276.49,5.4
200,tiksi,84,RU,1586670598,90,71.69,128.87,258.63,7.26
201,jeremie,4,HT,1586670598,72,18.65,-74.12,299.04,2.12
202,cherskiy,71,RU,1586670598,96,68.75,161.3,268.72,6.3
203,monrovia,47,LR,1586670478,84,6.3,-10.8,299.48,0.85
204,shirokiy,0,RU,1586670599,31,49.76,129.52,289.29,3.81
205,thompson,75,CA,1586670312,78,55.74,-97.86,262.15,5.1
206,mahebourg,40,MU,1586670600,65,-20.41,57.7,301.48,8.2
207,jalu,0,LY,1586670601,38,29.03,21.55,289.94,0.76
208,zhaoyuan,0,CN,1586670601,36,37.36,120.4,286.79,8.47
209,saskylakh,36,RU,1586670602,92,71.92,114.08,261.1,4.97
210,labuan,75,MY,1586670312,79,5.28,115.24,305.15,1.5
211,palana,34,RU,1586670602,95,59.12,159.97,266.3,2.81
212,flinders,0,AU,1586670603,30,-34.58,150.86,294.82,2.6
213,tarko-sale,100,RU,1586670603,99,64.92,77.78,271.49,2.43
214,aklavik,75,CA,1586670604,67,68.22,-135.01,265.15,2.6
215,rawatsar,49,IN,1586670604,19,29.28,74.38,308.61,3.02
216,petropavlovsk-kamchatskiy,40,RU,1586670605,59,53.05,158.65,276.15,6.0
217,quchan,100,IR,1586670417,56,37.11,58.51,283.67,2.73
218,otatitlan,68,MX,1586670606,75,18.2,-96.03,299.07,0.74
219,poum,71,NC,1586670606,71,-20.23,164.02,299.83,4.33
220,upernavik,97,GL,1586670607,85,72.79,-56.15,267.1,1.85
221,eureka,90,US,1586670607,81,40.8,-124.16,283.71,2.1
222,vila franca do campo,20,PT,1586670608,82,37.72,-25.43,287.15,4.6
223,dwarka,0,IN,1586670608,72,22.24,68.97,300.15,5.38
224,ivanteyevka,31,RU,1586670608,74,55.97,37.92,275.15,4.0
225,caucaia,20,BR,1586670351,94,-3.74,-38.65,299.82,2.1
226,antofagasta,75,CL,1586670609,77,-23.65,-70.4,291.15,3.6
227,safaga,32,EG,1586670609,41,26.73,33.94,294.08,7.26
228,roma,1,US,1586670401,79,43.21,-75.46,274.26,1.97
229,pacific grove,90,US,1586670610,76,36.62,-121.92,286.48,2.6
230,kamenka,96,RU,1586670611,79,51.32,42.77,275.93,0.89
231,valley,40,US,1586670611,40,45.13,-116.13,274.15,3.1
232,zdvinsk,23,RU,1586670611,80,54.7,78.66,277.01,3.7
233,risaralda,99,CO,1586670612,55,5.17,-75.77,289.29,0.44
234,bilibino,91,RU,1586670612,89,68.05,166.44,265.14,1.36
235,adrar,0,MR,1586670613,22,20.5,-10.07,295.68,5.34
236,san felipe,86,VE,1586670614,77,10.34,-68.74,296.01,1.21
237,zhuanghe,15,CN,1586670614,42,39.7,122.99,285.35,3.31
238,xining,93,CN,1586670614,13,36.62,101.77,286.15,2.67
239,bubaque,1,GW,1586670615,73,11.28,-15.83,298.56,3.28
240,asyut,0,EG,1586670615,38,27.18,31.18,292.67,4.14
241,arlit,11,NE,1586670616,14,18.74,7.39,300.19,4.33
242,henties bay,10,NA,1586670616,90,-22.12,14.28,289.82,1.34
243,tignere,89,CM,1586670618,52,7.37,12.65,291.92,1.06
244,canmore,90,CA,1586670618,78,51.08,-115.35,264.82,3.1
245,kloulklubed,75,PW,1586670619,62,7.04,134.26,305.15,4.1
246,hamilton,90,US,1586670437,93,39.18,-84.53,283.15,1.5
247,auki,77,SB,1586670620,72,-8.77,160.7,302.03,0.41
248,broome,1,US,1586670620,55,42.25,-75.83,274.26,1.5
249,beringovskiy,99,RU,1586670620,95,63.05,179.32,262.84,4.09
250,zhanakorgan,100,KZ,1586670621,72,43.91,67.25,289.46,4.03
251,lianzhou,0,CN,1586670621,38,24.78,112.38,291.92,5.16
252,praia da vitoria,75,PT,1586670622,87,38.73,-27.07,288.15,4.16
253,georgetown,20,MY,1586670622,66,5.41,100.34,306.15,3.1
254,melfi,40,IT,1586670622,75,41.0,15.65,280.15,3.1
255,ketchikan,1,US,1586670624,64,55.34,-131.65,280.15,5.1
256,victoria,4,HK,1586670325,40,22.29,114.16,297.59,4.6
257,robertsport,28,LR,1586670624,84,6.75,-11.37,299.1,1.93
258,vanimo,96,PG,1586670625,82,-2.67,141.3,301.51,3.5
259,grand baie,40,MU,1586670625,65,-20.02,57.58,301.48,8.2
260,omboue,98,GA,1586670626,88,-1.57,9.26,298.21,4.86
261,manicore,99,BR,1586670626,97,-5.81,-61.3,296.42,0.75
262,santa cruz do sul,0,BR,1586670626,92,-29.72,-52.43,285.37,0.45
263,smithers,1,CA,1586670627,29,54.78,-127.17,276.15,0.53
264,kurilsk,90,RU,1586670627,93,45.23,147.88,271.39,3.71
265,bac lieu,22,VN,1586670628,52,9.29,105.72,305.33,4.87
266,joshimath,11,IN,1586670628,9,30.57,79.57,295.18,2.54
267,taoudenni,0,ML,1586670628,18,22.68,-3.98,297.39,1.54
268,wallenhorst,44,DE,1586670629,75,52.35,8.02,280.37,1.0
269,poitiers,3,FR,1586670603,81,46.58,0.33,284.26,2.6
270,sant julia de loria,85,AD,1586670630,86,42.46,1.48,284.82,0.14
271,los llanos de aridane,90,ES,1586670630,77,28.66,-17.92,291.15,5.1
272,ponta do sol,75,PT,1586670631,82,32.67,-17.1,289.15,4.6
273,kokopo,99,PG,1586670632,76,-4.35,152.26,301.2,1.44
274,fetesti,5,RO,1586670632,69,44.38,27.83,283.15,1.5
275,hearst,44,CA,1586670432,96,49.68,-83.67,270.41,3.29
276,marsh harbour,85,BS,1586670633,83,26.54,-77.06,296.13,9.02
277,guerrero negro,22,MX,1586670491,74,27.98,-114.06,288.95,7.43
278,tshikapa,100,CD,1586670634,79,-6.42,20.8,296.24,0.78
279,middle island,1,US,1586670634,59,40.88,-72.94,279.82,0.59
280,nanortalik,100,GL,1586670634,73,60.14,-45.24,276.47,20.73
281,jablah,40,SY,1586670635,87,35.36,35.93,288.15,1.5
282,ozernovskiy,7,RU,1586670635,89,51.5,156.52,273.68,2.54
283,solnechnyy,0,RU,1586670636,42,50.72,136.63,282.92,3.08
284,puerto baquerizo moreno,42,EC,1586670636,89,-0.9,-89.6,298.83,1.69
285,bogatynia,17,PL,1586670637,52,50.91,14.96,284.26,3.13
286,hilo,90,US,1586670549,74,19.73,-155.09,299.15,2.1
287,katangli,98,RU,1586670638,94,51.71,143.23,273.53,4.14
288,san rafael del sur,40,NI,1586670638,74,11.85,-86.44,302.15,5.1
289,great yarmouth,1,GB,1586670579,81,52.61,1.73,282.59,1.0
290,torrington,1,US,1586670431,47,41.8,-73.12,277.15,0.9
291,ambilobe,1,MG,1586670639,63,-13.2,49.05,301.65,3.04
292,banjar,40,ID,1586670639,84,-8.19,114.97,303.15,3.1
293,siva,24,EG,1586670640,44,29.2,25.52,290.29,2.58
294,tambun,40,ID,1586670640,59,-6.26,107.07,309.26,3.6
295,dustlik,100,UZ,1586670641,69,40.52,68.04,289.66,2.94
296,falmouth,15,GB,1586670581,87,50.15,-5.07,283.15,2.6
297,kailua,90,US,1586670641,69,21.4,-157.74,299.15,5.1
298,shitanjing,13,CN,1586670642,16,39.23,106.34,285.99,5.21
299,bathsheba,20,BB,1586670643,74,13.22,-59.52,299.15,6.7
300,tabou,20,CI,1586670643,85,4.42,-7.35,298.86,1.21
301,dunedin,100,NZ,1586670643,75,-45.87,170.5,288.71,0.89
302,newport,53,GB,1586670644,93,51.59,-3.0,283.71,2.6
303,wilmington,1,US,1586670461,81,34.23,-77.94,292.59,2.2
304,sinnamary,100,GF,1586670645,76,5.38,-52.95,299.52,5.97
305,kikwit,100,CD,1586670645,83,-5.04,18.82,295.75,0.49
306,mathathane,18,BW,1586670645,32,-22.27,28.75,296.24,2.7
307,middletown,90,US,1586670410,66,39.52,-84.4,283.71,2.6
308,necochea,97,AR,1586670646,85,-38.55,-58.74,289.26,0.45
309,provideniya,100,RU,1586670647,96,64.38,-173.3,272.76,2.27
310,hervey bay,0,AU,1586670647,30,-25.3,152.85,302.59,5.1
311,khandyga,100,RU,1586670648,93,62.67,135.6,273.78,2.06
312,bombay,15,IN,1586670524,52,19.01,72.85,308.71,2.6
313,langfang,0,CN,1586670649,7,39.51,116.69,298.15,4.0
314,fallon,1,US,1586670649,43,39.47,-118.78,288.15,1.5
315,palmas,75,BR,1586670649,88,-10.21,-48.36,297.15,2.6
316,rio grande,2,BR,1586670378,97,-32.03,-52.1,284.82,3.13
317,si sa ket,40,TH,1586670650,59,15.11,104.33,308.15,2.6
318,acajutla,52,SV,1586670650,84,13.59,-89.83,294.82,2.92
319,vao,13,NC,1586670651,75,-22.67,167.48,298.4,5.73
320,yerbogachen,0,RU,1586670651,64,61.28,108.01,277.18,3.71
321,maneadero,54,MX,1586670652,84,31.72,-116.57,288.71,0.89
322,sri aman,75,MY,1586670652,70,1.24,111.46,304.15,2.1
323,swift current,90,CA,1586670652,92,50.28,-107.8,264.15,2.1
324,klyuchi,36,RU,1586670653,42,52.27,79.17,283.93,5.49
325,andapa,42,MG,1586670654,61,-14.65,49.65,297.73,1.33
326,santa isabel,75,BR,1586670654,87,-23.32,-46.22,290.37,3.1
327,naze,75,JP,1586670655,77,28.37,129.48,293.15,7.2
328,nishihara,90,JP,1586670655,77,26.18,127.76,292.15,6.7
329,saint-augustin,38,CA,1586670655,95,51.23,-58.65,269.3,3.93
330,mayo,1,US,1586670656,76,38.89,-76.51,283.15,3.01
331,makakilo city,1,US,1586670446,73,21.35,-158.09,299.15,3.6
332,kodiak,90,US,1586670656,86,57.79,-152.41,276.15,9.3
333,urucara,99,BR,1586670657,94,-2.54,-57.76,296.8,0.24
334,mayna,100,RU,1586670657,78,54.11,47.62,276.52,7.18
335,camapua,20,BR,1586670658,79,-19.53,-54.04,293.66,2.63
336,khatanga,100,RU,1586670658,98,71.97,102.5,273.5,8.14
337,maneromango,75,TZ,1586670659,94,-7.2,38.78,298.15,3.6
338,itarema,96,BR,1586670659,88,-2.92,-39.92,298.46,1.62
339,le port,27,RE,1586670528,78,-20.94,55.29,300.93,5.7
340,krasnyy chikoy,95,RU,1586670660,18,50.36,108.75,291.05,2.06
341,semnan,8,IR,1586670379,29,35.57,53.4,288.43,3.85
342,beroroha,100,MG,1586670661,50,-21.67,45.17,299.95,3.42
343,lata,32,PT,1586670661,94,40.16,-8.33,287.04,0.66
344,lompoc,90,US,1586670662,81,34.64,-120.46,287.59,3.1
345,camocim,97,BR,1586670662,92,-2.9,-40.84,297.73,1.3
346,acari,53,PE,1586670663,72,-15.43,-74.62,295.32,1.19
347,bengkulu,30,ID,1586670402,60,-3.8,102.27,304.94,2.95
348,yulara,75,AU,1586670664,13,-25.24,130.99,307.15,2.1
349,ostrovnoy,1,RU,1586670664,93,68.05,39.51,266.1,4.74
350,sorland,100,NO,1586670665,94,67.67,12.69,273.1,13.09
351,sambava,31,MG,1586670665,67,-14.27,50.17,301.22,4.41
352,port macquarie,0,AU,1586670665,35,-31.43,152.92,295.15,2.1
353,panzhihua,30,CN,1586670666,18,26.59,101.71,302.84,0.76
354,abu samrah,0,SY,1586670666,56,35.3,37.18,287.46,2.94
355,morden,75,CA,1586670667,86,49.19,-98.1,271.15,3.6
356,emba,3,KZ,1586670667,39,48.83,58.14,285.0,4.83
357,tubuala,91,PA,1586670668,84,9.52,-79.03,300.34,5.91
358,karratha,1,AU,1586670668,39,-20.74,116.85,305.87,8.33
359,barbastro,86,ES,1586670669,66,42.04,0.13,283.71,3.1
360,udachnyy,15,RU,1586670669,47,66.42,112.4,274.15,5.0
361,alyangula,40,AU,1586670670,70,-13.85,136.42,304.15,2.6
362,port lincoln,93,AU,1586670670,56,-34.73,135.87,288.88,3.88
363,marshall,1,US,1586670671,43,34.38,-86.33,288.15,2.1
364,bondoukou,91,CI,1586670671,82,8.03,-2.8,296.57,1.61
365,cracow,90,US,1586670672,65,43.74,-82.82,282.15,3.1
366,esmeralda,0,CU,1586670672,85,21.85,-78.12,296.21,2.78
367,cortez,1,US,1586670672,40,37.35,-108.59,277.04,4.1
368,lasa,5,IT,1586670674,93,46.62,10.7,282.59,2.1
369,avera,1,US,1586670674,87,33.19,-82.53,287.15,1.5
370,saldanha,96,ZA,1586670603,93,-33.01,17.94,289.15,3.1
371,tromso,100,NO,1586670675,79,69.65,18.96,269.15,5.7
372,omsukchan,100,RU,1586670675,87,62.53,155.8,266.95,0.84
373,forestville,1,US,1586670676,53,38.85,-76.88,283.15,2.48
374,bedele,85,ET,1586670676,45,8.46,36.35,293.69,0.83
375,kiama,0,AU,1586670677,30,-34.68,150.87,294.26,2.6
376,savannah bight,6,HN,1586670677,81,16.45,-85.85,300.95,13.26
377,kavaratti,20,IN,1586670678,70,10.57,72.64,304.15,2.1
378,haines junction,4,CA,1586670678,80,60.75,-137.51,267.94,1.01
379,canaries,40,ES,1586670678,68,28.0,-15.5,291.15,4.6
380,gazalkent,90,UZ,1586670679,93,41.56,69.77,288.15,5.1
381,ixtapa,5,MX,1586670679,78,20.7,-105.2,296.15,1.0
382,sembe,100,CG,1586670680,83,1.65,14.58,294.18,1.71
383,coro,49,VE,1586670680,79,11.4,-69.67,298.54,7.33
384,kirillov,0,RU,1586670681,73,59.86,38.38,274.33,1.5
385,valparai,40,IN,1586670681,59,10.37,76.97,306.15,2.1
386,sur,1,OM,1586670681,33,22.57,59.53,304.91,5.59
387,karaton,40,ID,1586670682,59,-6.34,106.1,306.15,4.6
388,presidente franco,0,PY,1586670682,87,-25.53,-54.62,288.15,2.6
389,ilulissat,93,GL,1586670683,51,69.22,-51.1,276.15,10.3
390,mosalsk,45,RU,1586670683,64,54.49,34.98,276.55,4.5
391,businga,100,CD,1586670683,85,3.33,20.88,295.37,2.25
392,ransang,8,PH,1586670684,65,8.96,117.58,302.98,2.02
393,gogrial,73,SS,1586670684,44,8.53,28.1,302.74,2.25
394,okakarara,76,NA,1586670685,47,-20.58,17.43,292.48,0.47
395,diamantino,83,BR,1586670685,82,-14.41,-56.45,295.78,0.07
396,nome,90,US,1586670686,92,64.5,-165.41,272.15,4.1
397,funtua,100,NG,1586670686,17,11.52,7.31,295.63,2.89
398,borba,99,BR,1586670687,97,-4.39,-59.59,295.71,0.32
399,juneau,1,US,1586670687,64,58.3,-134.42,277.59,1.78
400,muroto,75,JP,1586670688,93,33.28,134.15,284.15,3.6
401,praia,29,CV,1586670688,83,14.92,-23.51,295.15,4.1
402,sovetskiy,78,RU,1586670689,78,61.36,63.58,278.85,2.59
403,garissa,93,KE,1586670691,60,-0.45,39.64,302.47,6.27
404,luderitz,0,NA,1586670691,72,-26.65,15.16,288.15,3.6
405,samarai,68,PG,1586670692,62,-10.62,150.67,301.12,3.78
406,saint-joseph,75,RE,1586670692,74,-21.37,55.62,300.93,7.2
407,vernon,1,CA,1586670500,32,50.26,-119.27,276.15,2.6
408,jiaojiang,34,CN,1586670693,43,28.68,121.44,292.59,1.34
409,coquimbo,74,CL,1586670694,87,-29.95,-71.34,287.15,2.6
410,ewa beach,1,US,1586670557,73,21.32,-158.01,299.15,3.6
411,bellingham,1,US,1586670582,45,48.76,-122.49,283.15,1.5
412,ahipara,71,NZ,1586670695,78,-35.17,173.17,292.76,8.7
413,la ronge,75,CA,1586670695,61,55.1,-105.28,263.15,3.6
414,katra,86,IN,1586670696,24,32.98,74.95,301.57,2.03
415,deputatskiy,63,RU,1586670696,90,69.3,139.9,266.16,5.8
416,mount pleasant,90,US,1586670497,93,32.79,-79.86,287.59,5.04
417,moroni,97,KM,1586670698,72,-11.7,43.26,301.73,4.51
418,fauske,90,NO,1586670698,92,67.26,15.39,272.15,10.3
419,kendari,58,ID,1586670698,69,-3.94,122.5,302.92,2.78
420,codajas,100,BR,1586670699,98,-3.84,-62.06,295.5,0.65
421,gerash,75,IR,1586670699,44,27.67,54.14,298.15,4.1
422,bastia,0,FR,1586670699,50,42.67,9.33,288.15,3.6
423,nantucket,1,US,1586670594,48,41.28,-70.1,280.15,4.1
424,atar,0,MR,1586670700,28,20.52,-13.05,295.48,5.22
425,nacala,88,MZ,1586670701,77,-14.54,40.67,299.32,4.75
426,sitka,40,US,1586670701,64,57.05,-135.33,277.15,2.1
427,atambua,84,ID,1586670702,80,-9.11,124.89,298.65,3.92
428,brownsville,90,US,1586670702,88,25.9,-97.5,299.26,6.2
429,genhe,0,CN,1586670703,20,50.78,121.52,290.39,3.26
430,rocha,32,UY,1586670703,89,-34.48,-54.33,285.44,2.24
431,bambous virieux,40,MU,1586670704,65,-20.34,57.76,301.48,8.2
432,dondo,86,MZ,1586670704,78,-19.61,34.74,295.72,1.87
433,nanga eboko,96,CM,1586670704,72,4.68,12.37,293.08,0.55
434,goderich,91,CA,1586670705,70,43.75,-81.72,279.26,6.51
435,dordrecht,9,NL,1586670705,93,51.81,4.67,284.26,1.5
436,katobu,68,ID,1586670706,77,-4.94,122.53,302.21,0.88
437,bonito,0,BR,1586670706,52,-21.12,-56.48,290.65,0.39
438,andenes,100,NO,1586670706,74,69.31,16.12,272.15,6.2
439,zaria,100,NG,1586670707,19,11.11,7.72,296.36,2.2
440,bay city,40,US,1586670492,61,43.59,-83.89,283.15,2.6
441,byron bay,13,AU,1586670426,56,-28.65,153.62,297.15,5.7
442,charagua,0,BO,1586670708,50,-19.8,-63.22,287.14,1.2
443,port-cartier,20,CA,1586670708,54,50.03,-66.87,272.04,3.1
444,nikolayevka,100,RU,1586670709,83,53.13,47.2,277.03,6.77
445,houma,90,US,1586670709,83,29.6,-90.72,296.48,5.1
446,ossora,38,RU,1586670710,94,59.24,163.07,267.85,0.68
447,kenai,40,US,1586670710,55,60.55,-151.26,276.15,5.1
448,vynohradove,0,UA,1586670710,54,46.37,32.94,279.82,7.15
449,lazaro cardenas,48,MX,1586670711,87,17.96,-102.2,295.84,1.31
450,moree,0,AU,1586670711,30,-29.47,149.85,295.15,4.6
451,pusad,0,IN,1586670712,9,19.9,77.58,313.32,0.48
452,shubarshi,18,KZ,1586670712,37,48.59,57.19,285.55,5.1
453,nakamura,100,JP,1586670713,93,32.98,132.93,285.43,6.36
454,beira,82,MZ,1586670713,77,-19.84,34.84,296.24,2.58
455,mandera,87,KE,1586670713,17,3.94,41.87,298.71,1.34
456,dingle,11,PH,1586670714,49,11.0,122.67,305.41,3.86
457,bonavista,26,CA,1586670714,85,48.65,-53.11,273.71,5.36
458,vestmanna,79,FO,1586670715,69,62.16,-7.17,275.15,14.9
459,ubatuba,42,BR,1586670715,71,-23.43,-45.07,294.24,1.37
460,wamba,100,NG,1586670716,43,8.93,8.6,297.74,0.96
461,laem sing,20,TH,1586670716,79,12.48,102.07,304.15,1.5
462,brae,98,GB,1586670717,87,60.4,-1.35,281.15,9.3
463,yumen,83,CN,1586670717,13,40.28,97.2,289.14,2.37
464,lar,0,IN,1586670718,10,26.2,83.97,312.42,2.78
465,morondava,76,MG,1586670718,65,-20.28,44.28,300.74,1.81
466,olonets,0,RU,1586670719,79,60.98,32.97,275.51,2.75
467,lokosovo,97,RU,1586670719,95,61.13,74.82,277.81,3.28
468,havre-saint-pierre,1,CA,1586670720,58,50.23,-63.6,272.15,4.1
469,kibungo,75,RW,1586670720,93,-2.16,30.54,292.15,1.0
470,pasighat,3,IN,1586670721,22,28.07,95.33,305.45,1.95
471,gualeguay,21,AR,1586670721,73,-33.14,-59.31,286.1,2.63
472,nouadhibou,0,MR,1586670721,72,20.93,-17.03,292.15,9.3
473,shieli,100,KZ,1586670722,68,44.17,66.75,289.44,1.28
474,batagay,59,RU,1586670722,81,67.63,134.63,274.36,1.74
475,manavalakurichi,20,IN,1586670723,62,8.13,77.3,305.15,3.1
476,mayumba,99,GA,1586670723,86,-3.43,10.66,298.88,4.61
477,road town,1,VG,1586670724,83,18.42,-64.62,299.82,2.1
478,swellendam,83,ZA,1586670724,68,-34.02,20.44,292.15,11.3
479,sola,97,VU,1586670725,72,-13.88,167.55,300.75,5.19
480,bulaevo,89,KZ,1586670725,40,54.91,70.44,285.37,8.19
481,konskie,55,PL,1586670725,1,51.19,20.41,279.82,3.44
482,dahanu,0,IN,1586670726,24,19.97,72.73,308.82,3.99
483,riyadh,75,SA,1586670553,25,24.69,46.72,296.15,5.7
484,launceston,71,AU,1586670588,48,-41.45,147.17,291.15,5.1
485,napier,63,NZ,1586670727,52,-39.48,176.92,292.59,2.24
486,resistencia,0,AR,1586670476,100,-27.46,-58.98,289.82,2.1
487,ilhabela,28,BR,1586670561,66,-23.78,-45.36,294.32,0.7
488,ringe,69,DK,1586670728,61,55.25,10.47,282.15,3.1
489,tambura,99,SS,1586670729,69,5.6,27.47,297.51,0.6
490,khorixas,0,NA,1586670729,45,-20.37,14.97,296.17,2.78
491,boende,98,CD,1586670730,87,-0.22,20.87,296.06,1.55
492,caravelas,2,BR,1586670730,86,-17.71,-39.25,298.37,1.75
493,fort nelson,75,CA,1586670731,45,58.81,-122.7,270.15,1.25
494,korhogo,80,CI,1586670731,61,9.45,-5.63,298.22,1.64
495,itupiranga,90,BR,1586670731,100,-5.13,-49.33,298.15,1.5
496,cap malheureux,40,MU,1586670732,65,-19.98,57.61,301.48,8.2
497,stephenville,90,US,1586670732,88,32.22,-98.2,295.37,3.6
498,gobabis,36,NA,1586670733,82,-22.45,18.97,288.15,1.0
499,usinsk,100,RU,1586670733,94,65.99,57.53,267.59,2.73
500,gazanjyk,6,TM,1586670733,45,39.24,55.52,288.39,4.16
501,changji,35,CN,1586670734,29,44.02,87.32,289.15,3.0
502,adeje,75,ES,1586670734,68,28.12,-16.73,292.15,4.6
503,danane,30,CI,1586670735,86,7.26,-8.15,294.51,0.7
504,jiangyou,14,CN,1586670735,26,31.77,104.72,294.98,2.79
505,vyritsa,49,RU,1586670735,69,59.41,30.35,276.15,3.0
506,novopokrovka,0,UA,1586670736,63,49.84,36.55,277.7,6.05
507,powell river,5,CA,1586670736,31,49.85,-124.54,283.15,2.6
508,onguday,19,RU,1586670737,38,50.75,86.15,282.79,1.11
509,san patricio,23,MX,1586670737,62,19.22,-104.7,296.76,3.43
510,westport,1,US,1586670545,59,41.14,-73.36,282.15,0.26
511,cidreira,26,BR,1586670738,75,-30.18,-50.21,290.35,1.4
512,athni,0,IN,1586670739,15,16.73,75.07,309.47,3.77
513,saint george,20,US,1586670739,44,37.1,-113.58,289.82,1.51
514,constitucion,47,CL,1586670739,77,-35.33,-72.42,284.2,3.38
515,kishapu,96,TZ,1586670740,56,-3.62,33.87,294.54,4.26
516,zlotow,25,PL,1586670740,48,53.36,17.04,280.37,2.1
517,urumqi,33,CN,1586670559,29,43.8,87.6,289.15,3.0
518,kargil,54,IN,1586670741,16,34.57,76.1,277.78,0.65
519,cockburn town,0,TC,1586670671,81,21.46,-71.14,299.0,6.39
520,tessalit,0,ML,1586670742,15,20.2,1.01,298.03,2.63
521,tafresh,20,IR,1586670742,70,34.69,50.01,282.15,4.1
522,port-gentil,99,GA,1586670743,83,-0.72,8.78,299.82,5.17
523,taraz,90,KZ,1586670686,87,42.9,71.37,285.15,5.0
524,tonantins,100,BR,1586670744,97,-2.87,-67.8,295.85,1.47
525,traverse city,1,US,1586670744,72,44.76,-85.62,282.15,2.6
526,tabas,95,IR,1586670744,64,33.6,56.92,293.15,5.1
527,cayhagan,2,PH,1586670745,64,9.67,122.43,301.77,3.24
528,oyama,75,JP,1586670745,54,36.3,139.8,289.82,4.6
529,komatipoort,0,ZA,1586670746,82,-25.43,31.95,292.59,0.5
530,port hardy,5,CA,1586670746,48,50.7,-127.42,279.15,3.6
531,bukama,83,CD,1586670747,70,-9.2,25.85,296.26,0.49
532,hofn,14,IS,1586670747,88,64.25,-15.21,271.08,7.38
533,belyy yar,0,RU,1586670748,31,53.6,91.39,283.15,3.0
534,komsomolskiy,68,UZ,1586670748,48,40.43,71.72,291.15,2.1
535,cabedelo,20,BR,1586670749,94,-6.98,-34.83,297.15,1.0
536,bowen,22,AU,1586670749,39,-20.02,148.23,308.15,3.1
537,gashua,100,NG,1586670749,16,12.87,11.05,298.77,3.8
538,rossano,0,IT,1586670750,94,39.58,16.63,283.71,0.15
539,hay river,20,CA,1586670750,66,60.82,-115.8,261.15,3.1
540,astros,0,GR,1586670751,53,37.4,22.73,290.37,1.37
541,shenjiamen,0,CN,1586670751,60,29.96,122.3,286.66,13.2
542,nizhniy kuranakh,100,RU,1586670752,64,58.84,125.49,276.91,4.87
543,wasilla,1,US,1586670663,41,61.58,-149.44,277.15,1.5
544,puro,5,PH,1586670752,56,12.48,123.38,304.26,1.51
545,polyarnyy,74,RU,1586670753,62,69.2,33.45,269.15,3.0
546,liverpool,94,GB,1586670535,93,53.41,-2.98,284.26,0.5
547,tahoua,2,NE,1586670754,12,14.89,5.27,302.15,4.1
548,jumla,0,NP,1586670754,87,29.27,82.18,292.59,0.45
549,guadalupe y calvo,0,MX,1586670755,30,26.1,-106.97,275.27,1.96
550,kamiiso,20,JP,1586670755,66,41.82,140.65,279.15,5.7
551,hami,35,CN,1586670755,11,42.8,93.45,294.89,1.8
552,bontang,9,ID,1586670756,63,0.13,117.5,302.94,3.62
553,moyale,80,KE,1586670756,63,3.52,39.06,295.64,4.54
554,dauphin,90,CA,1586670757,92,51.15,-100.05,268.15,3.1
555,turbat,53,PK,1586670757,24,26.0,63.04,305.27,2.68
556,matamoros,49,MX,1586670669,14,25.53,-103.25,295.05,6.09
557,nahavand,0,IR,1586670758,25,34.19,48.38,282.37,2.52
558,ulaangom,100,MN,1586670758,69,49.98,92.07,273.27,0.59
559,boquete,97,PA,1586670759,73,8.78,-82.43,293.15,1.34
560,benalla,40,AU,1586670759,52,-36.55,145.98,291.15,3.6
561,casian,15,PH,1586670759,64,11.04,119.71,302.24,2.42
562,jiexiu,0,CN,1586670760,19,37.02,111.91,289.95,4.4
563,emerald,0,AU,1586670760,18,-23.53,148.17,305.15,6.2
564,sokone,29,SN,1586670760,70,13.88,-16.37,294.42,2.74
565,sakaiminato,75,JP,1586670761,93,35.55,133.23,281.15,10.3
566,lubin,86,PL,1586670761,61,51.4,16.2,283.15,3.1
567,tena,100,EC,1586670762,67,-0.98,-77.82,295.35,0.89
568,nokaneng,48,BW,1586670762,48,-19.67,22.27,295.28,1.3
569,bara,100,NG,1586670762,26,10.37,10.73,300.21,1.96
570,katsuura,75,JP,1586670763,67,35.13,140.3,287.59,4.1
571,drexel heights,90,US,1586670763,71,32.14,-111.03,284.82,3.07
572,la rioja,74,ES,1586670764,93,42.25,-2.5,284.15,2.1
573,lima,1,PE,1586669888,88,-12.04,-77.03,294.15,3.6
574,gornopravdinsk,14,RU,1586670765,76,60.05,69.9,281.47,2.18
575,sorong,40,ID,1586670765,83,-0.88,131.25,301.9,2.02
576,senno,0,RU,1586670766,76,59.53,33.92,274.96,1.36
577,talnakh,75,RU,1586670766,85,69.49,88.4,265.15,15.0
